<?xml version="1.0" encoding="UTF-8" ?>

<AreaList schemaLocation="schema.xsd">
    <MonitoringArea name="Alte Schleimündung" code="ASM">
        <position lat="54.686" lon="10.024" />
    </MonitoringArea>
    <MonitoringArea name="Breite" code="Br">
        <position lat="54.6835" lon="10.0268" />
    </MonitoringArea>
    <MonitoringArea name="Flöholmer Bucht" code="FB">
        <position lat="54.6914" lon="10.0182" />
    </MonitoringArea>
    <MonitoringArea name="Flöholm" code="FH">
        <position lat="54.6931" lon="10.0189" />
    </MonitoringArea>
    <MonitoringArea name="Großer Sand" code="GrS">
        <position lat="54.6911" lon="10.0303" />
    </MonitoringArea>
    <MonitoringArea name="Großer Strandwall" code="GrStrW">
        <position lat="54.6853" lon="10.0348" />
    </MonitoringArea>
    <MonitoringArea name="Große Wiese" code="GrW">
        <position lat="54.6894" lon="10.0323" />
    </MonitoringArea>
    <MonitoringArea name="Hafen" code="Hf">
        <position lat="54.673" lon="10.03209" />
    </MonitoringArea>
    <MonitoringArea name="Kiefernrevier" code="KR">
        <position lat="54.67757" lon="10.03385" />
    </MonitoringArea>
    <MonitoringArea name="Kleiner Teich" code="KT">
        <position lat="54.67958" lon="10.03398" />
    </MonitoringArea>
    <MonitoringArea name="Kiefernwäldchen" code="KW">
        <position lat="54.67526" lon="10.03374" />
    </MonitoringArea>
    <MonitoringArea name="Lotsbarg" code="LB">
        <position lat="54.68241" lon="10.03153" />
    </MonitoringArea>
    <MonitoringArea name="Lotsenhaus" code="LH">
        <position lat="54.67371" lon="10.03404" />
    </MonitoringArea>
    <MonitoringArea name="Lotsenteich" code="LT">
        <position lat="54.68394" lon="10.03349" />
    </MonitoringArea>
    <MonitoringArea name="Olpenitz" code="OLP">
        <position lat="54.67168" lon="10.02943" />
    </MonitoringArea>
    <MonitoringArea name="Ostsee" code="OST">
        <position lat="54.6866" lon="10.0373" />
    </MonitoringArea>
    <MonitoringArea name="Oeher Wiesen" code="OW">
        <position lat="54.6934" lon="10.0227" />
    </MonitoringArea>
    <MonitoringArea name="Pappelrevier" code="PR">
        <position lat="54.6812" lon="10.0337" />
    </MonitoringArea>
    <MonitoringArea name="Pappelwäldchen" code="PW">
        <position lat="54.6783" lon="10.0347" />
    </MonitoringArea>
    <MonitoringArea name="Quellhaken" code="QH">
        <position lat="54.6795" lon="10.0293" />
    </MonitoringArea>
    <MonitoringArea name="Quellteich" code="QT">
        <position lat="54.6786" lon="10.0307" />
    </MonitoringArea>
    <MonitoringArea name="Speisekammer" code="SpK">
        <position lat="54.676" lon="10.0314" />
    </MonitoringArea>
    <MonitoringArea name="Steert" code="St">
        <position lat="54.6821" lon="10.0262" />
    </MonitoringArea>
    <MonitoringArea name="Toter Mann" code="TM">
        <position lat="54.6871" lon="10.0287" />
    </MonitoringArea>
    <MonitoringArea name="Westteich" code="WT">
        <position lat="54.6809" lon="10.0318" />
    </MonitoringArea>
</AreaList>
